[{"_id":{"$oid":"6904f5f14336e7bd763edd68"},"name":"Universidad Politecnica de Madrid","website":"upm.es","year_founded":1971,"address":"Av. Complutense, s/n, Moncloa - Aravaca, 28040 Madrid","address_loc":{"type":"Point","coordinates":[-3.728635,40.448412]}},{"_id":{"$oid":"6904f5f24336e7bd763edd69"},"name":"Universidad Aut칩noma de Madrid","website":"uam.es","year_founded":1968,"address":"C. Francisco Tom치s y Valiente, 5, Fuencarral-El Pardo, 28049 Madrid","address_loc":{"type":"Point","coordinates":[-3.691367,40.546593]}},{"_id":{"$oid":"6904f5f44336e7bd763edd6a"},"name":"Universidad Complutense de Madrid","website":"ucm.es","year_founded":1293,"address":"Av. Complutense, s/n, Moncloa - Aravaca, 28040 Madrid","address_loc":{"type":"Point","coordinates":[-3.728635,40.448412]}},{"_id":{"$oid":"6904f5f54336e7bd763edd6b"},"name":"U-TAD: Centro Universitario de Tecnologia y Arte Digital","website":"u-tad.com","year_founded":2011,"address":"C. Playa de Liencres, 2 bis, 28290 Las Rozas de Madrid, Madrid","address_loc":{"type":"Point","coordinates":[-3.893514,40.539536]}},{"_id":{"$oid":"6904f5f74336e7bd763edd6c"},"name":"Universitat de Barcelona","website":"ub.edu","year_founded":1450,"address":"Gran Via de les Corts Catalanes, 585, 08007 Barcelona, Espa침a","address_loc":{"type":"Point","coordinates":[2.163604,41.386534]}},{"_id":{"$oid":"6904f5f84336e7bd763edd6d"},"name":"Universidad de Las Palmas de Gran Canaria","website":"ulpgc.es","year_founded":1989,"address":"Campus Universitario de Tafira, 35017 Las Palmas de Gran Canaria, Islas Canarias, Espa침a","address_loc":{"type":"Point","coordinates":[-15.454789,28.071259]}}]
